[
  {
    "name": "Gisbonre",
    "description": "Description for spot 1",
    "latitude":-38.6667,
    "longitude": 178.0237,
    "image": "/images/cardcover.png"
  },
  {
    "name": "Napier",
    "description": "Description for spot 2",
    "latitude": -39.4895,
    "longitude": 176.9181,
    "image": "./images/cardcover.png"
  },
  {
    "name": "HawkesBay",
    "description": "Description for spot 3",
    "latitude": -38.75333,
    "longitude": 178.00417,
    "image": "./images/cardcover.png"
  },
  {
    "name": "Thames",
    "description": "Description for spot 3",
    "latitude": -37.1385,
    "longitude": 175.5406,
    "image": "./images/cardcover.png"
  },
  {
    "name": "Whangamata",
    "description": "Description for spot 3",
    "latitude": -37.2041,
    "longitude": 175.8738,
    "image": "./images/cardcover.png"
  },
  {
    "name": "Whangamata",
    "description": "Description for spot 3",
    "latitude": -38.75333,
    "longitude": 178.00417,
    "image": "/images/cardcover.png"
  }
  

]
